Instance,Run,Algo,OptCost,InitCost,FinalCost,TimeMS,Steps,Evals
chr12a,0,G,9552,48784,18594,0.04,17,350
chr12a,0,S,9552,57786,12304,0.03,5,396
chr12a,0,RS,9552,39586,20328,1.00,5475,5476
chr12a,0,RW,9552,44860,13744,1.00,12383,12383
chr12a,0,H,9552,52326,52326,1.00,1,1032
chr12a,0,3O,9552,58640,16302,0.18,15,5050
chr12a,0,VNS,9552,17000,9552,1.01,13,32434
chr12a,0,REV,9552,62596,18674,0.03,10,186
chr12a,1,G,9552,40920,13438,0.03,19,529
chr12a,1,S,9552,49700,11444,0.02,7,528
chr12a,1,RS,9552,48192,18330,1.00,5564,5565
chr12a,1,RW,9552,51492,16032,1.00,12452,12452
chr12a,1,H,9552,52326,52326,1.00,1,1375
chr12a,1,3O,9552,51358,13458,0.08,6,2328
chr12a,1,VNS,9552,14258,9552,1.00,19,31939
chr12a,1,REV,9552,53130,16258,0.08,15,514
chr12a,2,G,9552,47560,12294,0.02,15,495
chr12a,2,S,9552,30622,18574,0.01,5,396
chr12a,2,RS,9552,55120,19558,1.00,4782,4783
chr12a,2,RW,9552,43680,15260,1.00,12376,12376
chr12a,2,H,9552,52326,52326,1.00,1,1370
chr12a,2,3O,9552,23194,10826,0.17,14,5458
chr12a,2,VNS,9552,18348,9552,1.01,7,32505
chr12a,2,REV,9552,38954,20780,0.04,13,259
chr12a,3,G,9552,47434,17596,0.02,18,499
chr12a,3,S,9552,39046,14724,0.01,5,396
chr12a,3,RS,9552,42784,17434,1.00,5660,5661
chr12a,3,RW,9552,44192,16206,1.00,12534,12534
chr12a,3,H,9552,52326,52326,1.00,1,1371
chr12a,3,3O,9552,43534,12268,0.09,12,2756
chr12a,3,VNS,9552,13476,10096,1.00,16,21233
chr12a,3,REV,9552,42774,13430,0.05,10,337
chr12a,4,G,9552,54134,13526,0.01,12,406
chr12a,4,S,9552,50686,12548,0.02,7,528
chr12a,4,RS,9552,53238,17204,1.00,2947,2948
chr12a,4,RW,9552,37242,16480,1.00,5532,5532
chr12a,4,H,9552,52326,52326,1.00,1,1393
chr12a,4,3O,9552,40194,16276,0.23,22,4408
chr12a,4,VNS,9552,15508,10096,1.00,13,30870
chr12a,4,REV,9552,62468,16910,0.05,10,328
chr12a,5,G,9552,58932,18794,0.02,21,569
chr12a,5,S,9552,47584,18108,0.02,6,462
chr12a,5,RS,9552,32554,16848,1.00,5483,5484
chr12a,5,RW,9552,52116,16636,1.00,12544,12544
chr12a,5,H,9552,52326,52326,1.00,1,1391
chr12a,5,3O,9552,41164,9562,0.11,15,3376
chr12a,5,VNS,9552,12304,9552,1.00,14,32340
chr12a,5,REV,9552,46648,15036,0.05,9,281
chr12a,6,G,9552,39630,12412,0.01,18,438
chr12a,6,S,9552,45224,11926,0.02,10,726
chr12a,6,RS,9552,43996,16530,1.00,5681,5682
chr12a,6,RW,9552,48918,13412,1.00,12525,12525
chr12a,6,H,9552,52326,52326,1.00,1,1358
chr12a,6,3O,9552,35860,12020,0.09,13,2804
chr12a,6,VNS,9552,14168,9552,1.00,17,32368
chr12a,6,REV,9552,58366,20772,0.05,13,300
chr12a,7,G,9552,63036,16276,0.01,19,406
chr12a,7,S,9552,47074,11216,0.02,10,726
chr12a,7,RS,9552,46232,15522,1.00,5684,5685
chr12a,7,RW,9552,56614,15836,1.00,12578,12578
chr12a,7,H,9552,52326,52326,1.00,1,1405
chr12a,7,3O,9552,38812,11772,0.14,12,4308
chr12a,7,VNS,9552,11216,9552,1.01,15,32681
chr12a,7,REV,9552,63868,21326,0.05,12,324
chr12a,8,G,9552,41320,14528,0.01,11,275
chr12a,8,S,9552,57148,16378,0.01,4,330
chr12a,8,RS,9552,31860,15968,1.00,5733,5734
chr12a,8,RW,9552,37854,14966,1.00,12654,12654
chr12a,8,H,9552,52326,52326,1.00,1,1402
chr12a,8,3O,9552,63280,11800,0.10,16,3008
chr12a,8,VNS,9552,12314,10096,1.01,14,32476
chr12a,8,REV,9552,45372,18082,0.06,13,381
chr12a,9,G,9552,50236,16914,0.01,7,188
chr12a,9,S,9552,53768,10096,0.02,10,726
chr12a,9,RS,9552,33264,18172,1.00,5709,5710
chr12a,9,RW,9552,34398,14532,1.00,12685,12685
chr12a,9,H,9552,52326,52326,1.00,1,1405
chr12a,9,3O,9552,43694,13074,0.10,12,3156
chr12a,9,VNS,9552,12560,10096,1.01,19,32740
chr12a,9,REV,9552,32444,14934,0.05,7,364
chr15a,0,G,9896,66966,14692,0.05,16,607
chr15a,0,S,9896,53980,13866,0.08,9,1050
chr15a,0,RS,9896,82882,23248,1.00,3821,3822
chr15a,0,RW,9896,66226,18804,1.00,11232,11232
chr15a,0,H,9896,77270,68720,1.00,4,746
chr15a,0,3O,9896,42242,12166,0.35,21,8016
chr15a,0,VNS,9896,16174,11708,1.02,24,23217
chr15a,0,REV,9896,66340,24566,0.07,11,268
chr15a,1,G,9896,43198,15358,0.02,20,416
chr15a,1,S,9896,50784,15092,0.06,10,1155
chr15a,1,RS,9896,54142,22566,1.00,4199,4200
chr15a,1,RW,9896,63070,20016,1.00,11308,11308
chr15a,1,H,9896,68720,68720,1.00,1,875
chr15a,1,3O,9896,58852,14102,0.26,13,5824
chr15a,1,VNS,9896,17268,10510,1.01,27,25327
chr15a,1,REV,9896,45332,17040,0.17,11,699
chr15a,2,G,9896,57554,17482,0.04,23,961
chr15a,2,S,9896,56418,13802,0.05,10,1155
chr15a,2,RS,9896,43542,23904,1.00,4192,4193
chr15a,2,RW,9896,47396,22656,1.00,11271,11271
chr15a,2,H,9896,72968,68720,1.00,2,939
chr15a,2,3O,9896,60086,9982,0.45,21,9902
chr15a,2,VNS,9896,20444,9978,1.01,28,25806
chr15a,2,REV,9896,87572,14614,0.14,16,566
chr15a,3,G,9896,66900,16992,0.02,17,468
chr15a,3,S,9896,63536,14488,0.04,8,945
chr15a,3,RS,9896,72042,21026,1.00,4198,4199
chr15a,3,RW,9896,74166,22438,1.00,11210,11210
chr15a,3,H,9896,68720,68720,1.00,1,953
chr15a,3,3O,9896,56228,11428,0.36,23,7998
chr15a,3,VNS,9896,14704,10070,1.00,24,25512
chr15a,3,REV,9896,51390,19654,0.07,12,284
chr15a,4,G,9896,69310,15872,0.04,18,867
chr15a,4,S,9896,65608,14470,0.08,9,1050
chr15a,4,RS,9896,57934,22764,1.00,4178,4179
chr15a,4,RW,9896,63458,23624,1.00,11207,11207
chr15a,4,H,9896,77270,68720,1.00,3,955
chr15a,4,3O,9896,69984,15006,0.24,20,5198
chr15a,4,VNS,9896,17206,11742,1.02,22,25662
chr15a,4,REV,9896,69510,26468,0.17,20,776
chr15a,5,G,9896,58286,14900,0.04,28,875
chr15a,5,S,9896,63022,15054,0.06,11,1260
chr15a,5,RS,9896,46970,26088,1.00,4203,4204
chr15a,5,RW,9896,68968,23612,1.00,11186,11186
chr15a,5,H,9896,72968,68720,1.00,2,955
chr15a,5,3O,9896,65774,14814,0.17,11,3624
chr15a,5,VNS,9896,14752,10302,1.00,28,25301
chr15a,5,REV,9896,71828,16410,0.12,20,520
chr15a,6,G,9896,86712,11804,0.03,23,660
chr15a,6,S,9896,57782,15710,0.03,6,735
chr15a,6,RS,9896,55060,26232,1.00,4191,4192
chr15a,6,RW,9896,69986,19246,1.00,11289,11289
chr15a,6,H,9896,77270,68720,1.00,3,950
chr15a,6,3O,9896,68906,13848,0.36,29,8308
chr15a,6,VNS,9896,15208,12046,1.01,28,25679
chr15a,6,REV,9896,57970,17638,0.17,18,738
chr15a,7,G,9896,66040,18634,0.03,18,691
chr15a,7,S,9896,56774,14478,0.05,9,1050
chr15a,7,RS,9896,57210,25080,1.00,4184,4185
chr15a,7,RW,9896,49510,21964,1.00,11170,11170
chr15a,7,H,9896,68720,68720,1.00,1,949
chr15a,7,3O,9896,62776,16382,0.20,21,4140
chr15a,7,VNS,9896,14878,9978,1.01,28,25491
chr15a,7,REV,9896,68578,17904,0.17,17,745
chr15a,8,G,9896,82334,14628,0.05,28,1063
chr15a,8,S,9896,56110,13068,0.04,7,840
chr15a,8,RS,9896,52014,22648,1.00,4176,4177
chr15a,8,RW,9896,60080,24436,1.00,11275,11275
chr15a,8,H,9896,72968,68720,1.00,2,946
chr15a,8,3O,9896,56206,17228,0.41,24,9410
chr15a,8,VNS,9896,12300,10408,1.01,27,25717
chr15a,8,REV,9896,61990,24526,0.12,10,525
chr15a,9,G,9896,62468,14304,0.03,22,689
chr15a,9,S,9896,64192,12258,0.04,7,840
chr15a,9,RS,9896,58026,27122,1.00,4182,4183
chr15a,9,RW,9896,63350,23252,1.00,11205,11205
chr15a,9,H,9896,73022,68720,1.00,2,958
chr15a,9,3O,9896,49422,17464,0.21,18,4708
chr15a,9,VNS,9896,16384,10786,1.00,21,25551
chr15a,9,REV,9896,42944,23644,0.12,8,504
nug12,0,G,578,852,626,0.02,17,394
nug12,0,S,578,744,610,0.01,3,264
nug12,0,RS,578,784,644,1.00,5135,5136
nug12,0,RW,578,790,606,1.00,12038,12038
nug12,0,H,578,886,726,1.00,10,1180
nug12,0,3O,578,802,608,0.09,9,2386
nug12,0,VNS,578,620,586,1.01,11,32093
nug12,0,REV,578,708,656,0.03,5,132
nug12,1,G,578,782,618,0.02,12,370
nug12,1,S,578,838,600,0.02,7,528
nug12,1,RS,578,810,642,1.00,5668,5669
nug12,1,RW,578,806,638,1.00,12491,12491
nug12,1,H,578,842,734,1.00,7,1150
nug12,1,3O,578,842,606,0.16,13,4734
nug12,1,VNS,578,624,578,1.00,18,32065
nug12,1,REV,578,856,626,0.05,10,260
nug12,2,G,578,826,600,0.01,16,355
nug12,2,S,578,772,618,0.01,5,396
nug12,2,RS,578,772,636,1.00,5692,5693
nug12,2,RW,578,822,614,1.00,12447,12447
nug12,2,H,578,846,726,1.00,7,1180
nug12,2,3O,578,828,626,0.09,13,2606
nug12,2,VNS,578,606,578,1.00,22,31854
nug12,2,REV,578,860,710,0.03,8,183
nug12,3,G,578,892,636,0.01,18,416
nug12,3,S,578,936,596,0.02,10,726
nug12,3,RS,578,850,634,1.00,5664,5665
nug12,3,RW,578,822,644,1.00,12519,12519
nug12,3,H,578,908,726,1.00,9,1163
nug12,3,3O,578,760,630,0.05,6,1288
nug12,3,VNS,578,592,578,1.01,16,32193
nug12,3,REV,578,840,660,0.04,13,208
nug12,4,G,578,872,608,0.01,11,322
nug12,4,S,578,868,608,0.02,7,528
nug12,4,RS,578,824,646,1.00,5698,5699
nug12,4,RW,578,726,636,1.00,12471,12471
nug12,4,H,578,902,726,1.00,10,1178
nug12,4,3O,578,736,610,0.06,10,1790
nug12,4,VNS,578,578,578,1.01,8,32293
nug12,4,REV,578,828,644,0.02,6,99
nug12,5,G,578,856,586,0.01,11,356
nug12,5,S,578,848,600,0.01,5,396
nug12,5,RS,578,772,642,1.00,5557,5558
nug12,5,RW,578,804,638,1.00,12451,12451
nug12,5,H,578,944,726,1.00,8,1154
nug12,5,3O,578,916,606,0.06,14,1772
nug12,5,VNS,578,600,578,1.00,16,31901
nug12,5,REV,578,834,644,0.04,7,195
nug12,6,G,578,798,610,0.01,16,318
nug12,6,S,578,822,630,0.02,6,462
nug12,6,RS,578,922,648,1.00,5665,5666
nug12,6,RW,578,894,638,1.00,12566,12566
nug12,6,H,578,846,726,1.00,8,1176
nug12,6,3O,578,750,586,0.09,15,2630
nug12,6,VNS,578,602,586,1.01,12,32163
nug12,6,REV,578,766,598,0.08,14,497
nug12,7,G,578,736,600,0.01,11,315
nug12,7,S,578,842,652,0.02,6,462
nug12,7,RS,578,754,634,1.00,5667,5668
nug12,7,RW,578,840,638,1.00,12520,12520
nug12,7,H,578,952,734,1.00,8,1176
nug12,7,3O,578,794,610,0.11,13,3184
nug12,7,VNS,578,606,578,1.00,17,31855
nug12,7,REV,578,766,628,0.05,8,285
nug12,8,G,578,918,608,0.01,14,286
nug12,8,S,578,846,616,0.02,7,528
nug12,8,RS,578,770,616,1.00,5620,5621
nug12,8,RW,578,860,648,1.00,12494,12494
nug12,8,H,578,868,734,1.00,7,1160
nug12,8,3O,578,920,612,0.06,9,1602
nug12,8,VNS,578,600,578,1.00,19,31954
nug12,8,REV,578,800,628,0.03,8,141
nug12,9,G,578,786,600,0.01,13,320
nug12,9,S,578,818,596,0.02,6,462
nug12,9,RS,578,772,650,1.00,5646,5647
nug12,9,RW,578,870,620,1.00,12605,12605
nug12,9,H,578,968,746,1.00,9,1178
nug12,9,3O,578,880,624,0.05,10,1352
nug12,9,VNS,578,612,578,1.01,13,32479
nug12,9,REV,578,710,600,0.06,9,401
nug15,0,G,1150,1514,1232,0.04,16,558
nug15,0,S,1150,1548,1270,0.05,7,840
nug15,0,RS,1150,1506,1338,1.00,4001,4002
nug15,0,RW,1150,1510,1308,1.00,11424,11424
nug15,0,H,1150,1730,1454,1.00,6,881
nug15,0,3O,1150,1692,1194,0.28,23,6744
nug15,0,VNS,1150,1200,1152,1.01,22,26017
nug15,0,REV,1150,1704,1264,0.12,18,501
nug15,1,G,1150,1648,1244,0.02,15,387
nug15,1,S,1150,1536,1276,0.03,5,630
nug15,1,RS,1150,1608,1312,1.00,4201,4202
nug15,1,RW,1150,1750,1334,1.00,11248,11248
nug15,1,H,1150,1654,1466,1.00,6,881
nug15,1,3O,1150,1636,1178,0.67,31,14394
nug15,1,VNS,1150,1270,1152,1.01,32,25154
nug15,1,REV,1150,1598,1270,0.22,15,946
nug15,2,G,1150,1608,1186,0.04,23,898
nug15,2,S,1150,1544,1198,0.06,11,1260
nug15,2,RS,1150,1710,1340,1.00,4214,4215
nug15,2,RW,1150,1506,1302,1.00,11284,11284
nug15,2,H,1150,1714,1458,1.00,5,876
nug15,2,3O,1150,1582,1180,0.41,23,9044
nug15,2,VNS,1150,1210,1152,1.00,22,25273
nug15,2,REV,1150,1580,1296,0.11,10,452
nug15,3,G,1150,1502,1176,0.03,19,709
nug15,3,S,1150,1580,1204,0.04,8,945
nug15,3,RS,1150,1646,1310,1.00,4176,4177
nug15,3,RW,1150,1504,1284,1.00,11248,11248
nug15,3,H,1150,1646,1458,1.00,6,877
nug15,3,3O,1150,1606,1226,0.19,22,4038
nug15,3,VNS,1150,1198,1150,1.01,28,25458
nug15,3,REV,1150,1582,1220,0.18,16,775
nug15,4,G,1150,1540,1160,0.06,31,1245
nug15,4,S,1150,1576,1292,0.04,8,945
nug15,4,RS,1150,1530,1340,1.00,4182,4183
nug15,4,RW,1150,1566,1320,1.00,11179,11179
nug15,4,H,1150,1614,1454,1.00,8,876
nug15,4,3O,1150,1652,1200,0.35,29,7868
nug15,4,VNS,1150,1198,1152,1.01,25,24974
nug15,4,REV,1150,1556,1318,0.12,12,494
nug15,5,G,1150,1588,1168,0.04,23,760
nug15,5,S,1150,1586,1226,0.04,8,945
nug15,5,RS,1150,1536,1334,1.00,4186,4187
nug15,5,RW,1150,1606,1266,1.00,11211,11211
nug15,5,H,1150,1538,1466,1.00,3,882
nug15,5,3O,1150,1714,1232,0.33,27,7576
nug15,5,VNS,1150,1196,1150,1.02,21,25812
nug15,5,REV,1150,1554,1218,0.17,19,685
nug15,6,G,1150,1604,1206,0.02,21,416
nug15,6,S,1150,1496,1160,0.06,11,1260
nug15,6,RS,1150,1506,1328,1.00,4174,4175
nug15,6,RW,1150,1600,1270,1.00,11239,11239
nug15,6,H,1150,1590,1466,1.00,5,881
nug15,6,3O,1150,1550,1170,0.31,22,7162
nug15,6,VNS,1150,1202,1160,1.00,33,25322
nug15,6,REV,1150,1600,1268,0.16,21,680
nug15,7,G,1150,1568,1174,0.04,21,822
nug15,7,S,1150,1704,1182,0.05,10,1155
nug15,7,RS,1150,1524,1326,1.00,4182,4183
nug15,7,RW,1150,1678,1278,1.00,11139,11139
nug15,7,H,1150,1766,1430,1.00,6,877
nug15,7,3O,1150,1650,1206,0.21,25,4746
nug15,7,VNS,1150,1184,1150,1.01,38,25382
nug15,7,REV,1150,1514,1250,0.13,14,509
nug15,8,G,1150,1506,1188,0.04,20,868
nug15,8,S,1150,1596,1190,0.03,6,735
nug15,8,RS,1150,1550,1328,1.00,4206,4207
nug15,8,RW,1150,1554,1218,1.00,11212,11212
nug15,8,H,1150,1602,1454,1.00,3,886
nug15,8,3O,1150,1654,1208,0.43,22,9870
nug15,8,VNS,1150,1196,1152,1.00,28,25376
nug15,8,REV,1150,1524,1258,0.14,17,599
nug15,9,G,1150,1734,1200,0.04,24,888
nug15,9,S,1150,1592,1218,0.03,6,735
nug15,9,RS,1150,1700,1330,1.00,4153,4154
nug15,9,RW,1150,1534,1278,1.00,11270,11270
nug15,9,H,1150,1614,1430,1.00,8,885
nug15,9,3O,1150,1706,1182,0.26,22,5764
nug15,9,VNS,1150,1166,1152,1.01,20,25786
nug15,9,REV,1150,1608,1296,0.15,13,647
tai64c,0,G,1855928,2973430,1864444,2.23,37,10424
tai64c,0,S,1855928,2802858,1857646,3.64,8,18144
tai64c,0,RS,1855928,2580788,2172758,2.24,658,659
tai64c,0,RW,1855928,2469750,2101292,2.23,9569,9569
tai64c,0,H,1855928,2829574,2152832,2.24,7,208
tai64c,0,3O,1855928,2842130,1857646,32.95,25,176410
tai64c,0,VNS,1855928,1860942,1860942,2.49,54,12720
tai64c,0,REV,1855928,2637904,2008216,20.24,13,5538
tai64c,1,G,1855928,2933228,1865494,1.59,25,5847
tai64c,1,S,1855928,2817252,1863678,3.85,8,18144
tai64c,1,RS,1855928,2797038,2123238,1.59,468,469
tai64c,1,RW,1855928,2441942,2118964,1.59,6859,6859
tai64c,1,H,1855928,2779478,2217930,1.59,4,147
tai64c,1,3O,1855928,3284024,1860942,34.87,33,187332
tai64c,1,VNS,1855928,1866152,1866152,2.10,47,10911
tai64c,1,REV,1855928,3088972,2171432,16.97,16,4635
tai64c,2,G,1855928,2798038,1863678,1.64,37,8537
tai64c,2,S,1855928,3132010,1876252,3.22,7,16128
tai64c,2,RS,1855928,2750312,2243880,1.64,473,474
tai64c,2,RW,1855928,2619450,2168508,1.64,7037,7037
tai64c,2,H,1855928,2877490,2323018,1.65,4,154
tai64c,2,3O,1855928,3453466,1860348,34.00,38,183272
tai64c,2,VNS,1855928,1863794,1863794,1.98,38,10245
tai64c,2,REV,1855928,2823660,2203208,8.73,7,2671
tai64c,3,G,1855928,3086240,1865994,2.01,46,10521
tai64c,3,S,1855928,2908296,1857646,3.21,7,16128
tai64c,3,RS,1855928,3233210,2149344,2.01,587,588
tai64c,3,RW,1855928,3318400,2096860,2.01,8676,8676
tai64c,3,H,1855928,3451868,2339716,2.02,6,188
tai64c,3,3O,1855928,2765474,1863678,32.60,23,175158
tai64c,3,VNS,1855928,1865994,1865994,2.22,34,11383
tai64c,3,REV,1855928,3241920,2152766,15.37,14,4259
tai64c,4,G,1855928,4208836,1866152,3.01,68,15506
tai64c,4,S,1855928,3299116,1863678,4.04,9,20160
tai64c,4,RS,1855928,3084166,2189926,3.01,875,876
tai64c,4,RW,1855928,3032520,2177618,3.01,12785,12785
tai64c,4,H,1855928,3040280,2131760,3.01,5,280
tai64c,4,3O,1855928,3277846,1926154,32.65,31,175624
tai64c,4,VNS,1855928,1857646,1857646,3.40,30,17310
tai64c,4,REV,1855928,3240684,2017224,25.70,21,6829
tai64c,5,G,1855928,3035886,1866842,2.02,42,10403
tai64c,5,S,1855928,3168458,1856396,3.26,7,16128
tai64c,5,RS,1855928,4269844,2274364,2.02,585,586
tai64c,5,RW,1855928,2635852,2073442,2.02,8658,8658
tai64c,5,H,1855928,2890054,2225884,2.02,6,188
tai64c,5,3O,1855928,2831812,1860942,32.89,26,176982
tai64c,5,VNS,1855928,1863794,1863794,2.55,58,13258
tai64c,5,REV,1855928,2905846,2039486,26.86,16,7096
tai64c,6,G,1855928,3466444,1867264,2.69,59,13826
tai64c,6,S,1855928,2869098,1867264,2.81,6,14112
tai64c,6,RS,1855928,3414826,2181194,2.69,777,778
tai64c,6,RW,1855928,3408556,2055078,2.69,11503,11503
tai64c,6,H,1855928,2883434,2200008,2.69,5,254
tai64c,6,3O,1855928,2324306,1866152,32.76,17,174994
tai64c,6,VNS,1855928,1867264,1863678,3.04,40,15479
tai64c,6,REV,1855928,3456546,2062700,16.37,14,4573
tai64c,7,G,1855928,3312986,1857646,2.41,66,12483
tai64c,7,S,1855928,3085518,1863678,3.26,7,16128
tai64c,7,RS,1855928,2845358,2218278,2.41,727,728
tai64c,7,RW,1855928,3443468,2072778,2.41,10399,10399
tai64c,7,H,1855928,2777494,2159348,2.41,5,228
tai64c,7,3O,1855928,3037236,1855928,33.61,33,180398
tai64c,7,VNS,1855928,1861832,1861832,2.75,26,14101
tai64c,7,REV,1855928,3069626,2035332,27.87,20,7385
tai64c,8,G,1855928,2932750,1866842,2.16,59,11223
tai64c,8,S,1855928,2531062,1863794,2.39,5,12096
tai64c,8,RS,1855928,2702278,2115574,2.17,636,637
tai64c,8,RW,1855928,2892602,2175832,2.16,9320,9320
tai64c,8,H,1855928,4171248,2238270,2.17,7,204
tai64c,8,3O,1855928,2485468,1867264,34.23,26,182974
tai64c,8,VNS,1855928,1903972,1903972,2.39,62,12562
tai64c,8,REV,1855928,3269586,1986344,18.59,16,5144
tai64c,9,G,1855928,3126454,1860348,1.70,39,8946
tai64c,9,S,1855928,3176344,1857646,3.65,8,18144
tai64c,9,RS,1855928,2482412,2255214,1.70,496,497
tai64c,9,RW,1855928,2747520,2126126,1.70,7340,7340
tai64c,9,H,1855928,3186660,2200118,1.70,4,162
tai64c,9,3O,1855928,2849182,1855928,33.34,31,179830
tai64c,9,VNS,1855928,1863678,1863678,2.40,56,12498
tai64c,9,REV,1855928,2953480,2084602,17.96,12,4910
tai12a,0,G,224416,306454,247894,0.01,11,248
tai12a,0,S,224416,320584,241696,0.03,11,792
tai12a,0,RS,224416,302974,257098,1.00,5686,5687
tai12a,0,RW,224416,334934,259182,1.00,12555,12555
tai12a,0,H,224416,319202,319202,1.00,1,1223
tai12a,0,3O,224416,305870,239818,0.09,18,2610
tai12a,0,VNS,224416,244692,230704,1.00,17,31870
tai12a,0,REV,224416,305836,245040,0.07,14,431
tai12a,1,G,224416,322786,249956,0.02,17,388
tai12a,1,S,224416,320876,254590,0.02,6,462
tai12a,1,RS,224416,322672,259678,1.00,5718,5719
tai12a,1,RW,224416,312466,253598,1.00,12594,12594
tai12a,1,H,224416,319202,319202,1.00,1,1229
tai12a,1,3O,224416,333912,245512,0.09,16,2512
tai12a,1,VNS,224416,249562,224416,1.00,21,31954
tai12a,1,REV,224416,311354,246970,0.07,14,457
tai12a,2,G,224416,332296,250394,0.01,18,341
tai12a,2,S,224416,290478,245124,0.01,5,396
tai12a,2,RS,224416,312520,255280,1.00,5678,5679
tai12a,2,RW,224416,349216,261550,1.00,12596,12596
tai12a,2,H,224416,319202,319202,1.00,1,1192
tai12a,2,3O,224416,319670,233040,0.08,12,2428
tai12a,2,VNS,224416,253108,224416,1.00,21,31885
tai12a,2,REV,224416,308472,245492,0.03,12,177
tai12a,3,G,224416,303194,242172,0.01,13,255
tai12a,3,S,224416,305258,237200,0.02,7,528
tai12a,3,RS,224416,318270,249998,1.00,5688,5689
tai12a,3,RW,224416,293226,255710,1.00,12555,12555
tai12a,3,H,224416,319202,319202,1.00,1,1221
tai12a,3,3O,224416,316784,245174,0.09,12,2618
tai12a,3,VNS,224416,245914,230704,1.00,22,31993
tai12a,3,REV,224416,318046,251810,0.04,10,209
tai12a,4,G,224416,344192,250684,0.01,18,298
tai12a,4,S,224416,330852,243060,0.02,7,528
tai12a,4,RS,224416,304246,259380,1.00,5690,5691
tai12a,4,RW,224416,312804,257800,1.00,12569,12569
tai12a,4,H,224416,319202,319202,1.00,1,1226
tai12a,4,3O,224416,315750,244710,0.06,16,1634
tai12a,4,VNS,224416,255428,224416,1.00,16,31916
tai12a,4,REV,224416,313922,252352,0.05,12,335
tai12a,5,G,224416,330134,234188,0.01,20,337
tai12a,5,S,224416,306726,253016,0.01,4,330
tai12a,5,RS,224416,330282,253444,1.00,5679,5680
tai12a,5,RW,224416,332576,254732,1.00,12574,12574
tai12a,5,H,224416,319202,319202,1.00,1,1227
tai12a,5,3O,224416,321566,240826,0.09,13,2654
tai12a,5,VNS,224416,240604,224416,1.00,19,31894
tai12a,5,REV,224416,319416,246052,0.03,10,206
tai12a,6,G,224416,301746,238828,0.01,9,163
tai12a,6,S,224416,284632,238902,0.01,5,396
tai12a,6,RS,224416,314800,257634,1.00,5656,5657
tai12a,6,RW,224416,294222,249440,1.00,12534,12534
tai12a,6,H,224416,319202,319202,1.00,1,1226
tai12a,6,3O,224416,298202,253168,0.07,14,1978
tai12a,6,VNS,224416,250394,224416,1.01,12,31991
tai12a,6,REV,224416,300248,247624,0.04,9,257
tai12a,7,G,224416,297554,247604,0.01,7,162
tai12a,7,S,224416,306916,242344,0.03,11,792
tai12a,7,RS,224416,319070,259858,1.00,5603,5604
tai12a,7,RW,224416,309418,257022,1.00,12575,12575
tai12a,7,H,224416,319202,319202,1.00,1,1230
tai12a,7,3O,224416,293532,251140,0.07,7,1830
tai12a,7,VNS,224416,236768,224416,1.00,25,31739
tai12a,7,REV,224416,308020,233040,0.04,5,237
tai12a,8,G,224416,335518,243252,0.02,24,485
tai12a,8,S,224416,329076,252496,0.01,4,330
tai12a,8,RS,224416,304972,261304,1.00,5676,5677
tai12a,8,RW,224416,351868,256586,1.00,12595,12595
tai12a,8,H,224416,319202,319202,1.00,1,1234
tai12a,8,3O,224416,312674,246110,0.12,14,3792
tai12a,8,VNS,224416,253702,224416,1.00,11,32004
tai12a,8,REV,224416,315264,260118,0.04,14,279
tai12a,9,G,224416,283694,230704,0.01,15,419
tai12a,9,S,224416,331614,251632,0.02,9,660
tai12a,9,RS,224416,292350,257952,1.00,5676,5677
tai12a,9,RW,224416,309242,252602,1.00,12633,12633
tai12a,9,H,224416,319202,319202,1.00,1,1218
tai12a,9,3O,224416,318408,250180,0.10,18,3108
tai12a,9,VNS,224416,250708,224416,1.01,17,31856
tai12a,9,REV,224416,326558,234072,0.06,14,375
tai20a,0,G,703482,896458,742696,0.06,33,889
tai20a,0,S,703482,940400,759356,0.12,10,2090
tai20a,0,RS,703482,872136,814172,1.00,2690,2691
tai20a,0,RW,703482,870234,813746,1.00,9821,9821
tai20a,0,H,703482,930478,930478,1.00,1,546
tai20a,0,3O,703482,923596,733844,1.05,29,17132
tai20a,0,VNS,703482,743220,729588,1.03,33,18422
tai20a,0,REV,703482,899214,791752,0.45,17,1073
tai20a,1,G,703482,907844,743512,0.14,41,1447
tai20a,1,S,703482,892380,752502,0.16,11,2280
tai20a,1,RS,703482,908898,802696,1.00,2674,2675
tai20a,1,RW,703482,873840,824460,1.00,9546,9546
tai20a,1,H,703482,930478,930478,1.00,1,577
tai20a,1,3O,703482,894874,738942,0.91,28,14450
tai20a,1,VNS,703482,736134,714636,1.01,27,17709
tai20a,1,REV,703482,907382,797592,0.42,11,992
tai20a,2,G,703482,894928,729916,0.07,25,1054
tai20a,2,S,703482,901488,739614,0.15,12,2470
tai20a,2,RS,703482,873804,828654,1.00,2678,2679
tai20a,2,RW,703482,900308,796680,1.00,9792,9792
tai20a,2,H,703482,930478,930478,1.00,1,645
tai20a,2,3O,703482,913666,754364,0.45,29,7286
tai20a,2,VNS,703482,736380,730666,1.01,31,18009
tai20a,2,REV,703482,908214,795010,0.25,13,593
tai20a,3,G,703482,886846,744660,0.08,27,1023
tai20a,3,S,703482,866808,736134,0.15,12,2470
tai20a,3,RS,703482,935834,822728,1.00,2676,2677
tai20a,3,RW,703482,861578,799942,1.00,9763,9763
tai20a,3,H,703482,930478,930478,1.00,1,645
tai20a,3,3O,703482,886796,736762,1.29,33,20960
tai20a,3,VNS,703482,735946,720544,1.01,40,17709
tai20a,3,REV,703482,896524,783588,0.37,21,900
tai20a,4,G,703482,881922,732076,0.09,36,1552
tai20a,4,S,703482,880886,734204,0.14,11,2280
tai20a,4,RS,703482,868920,817766,1.00,2619,2620
tai20a,4,RW,703482,915592,811936,1.00,9735,9735
tai20a,4,H,703482,930478,930478,1.00,1,643
tai20a,4,3O,703482,914464,740098,0.67,32,10884
tai20a,4,VNS,703482,748498,734544,1.03,36,17004
tai20a,4,REV,703482,871240,779916,0.25,14,590
tai20a,5,G,703482,899130,759438,0.03,25,441
tai20a,5,S,703482,854564,763278,0.07,5,1140
tai20a,5,RS,703482,917144,801520,1.00,2672,2673
tai20a,5,RW,703482,905440,801646,1.00,9815,9815
tai20a,5,H,703482,930478,930478,1.00,1,655
tai20a,5,3O,703482,890958,737828,1.14,34,18518
tai20a,5,VNS,703482,743250,730898,1.06,21,18629
tai20a,5,REV,703482,901322,783832,0.41,17,948
tai20a,6,G,703482,930800,738654,0.07,29,1167
tai20a,6,S,703482,910284,737308,0.14,11,2280
tai20a,6,RS,703482,882682,811194,1.00,2674,2675
tai20a,6,RW,703482,892802,808928,1.00,9795,9795
tai20a,6,H,703482,930478,930478,1.00,1,638
tai20a,6,3O,703482,926550,730250,0.68,31,11054
tai20a,6,VNS,703482,756126,712068,1.06,23,18507
tai20a,6,REV,703482,900204,779674,0.75,25,1818
tai20a,7,G,703482,925546,742214,0.05,38,855
tai20a,7,S,703482,911062,749366,0.13,10,2090
tai20a,7,RS,703482,922366,813180,1.00,2678,2679
tai20a,7,RW,703482,928818,810790,1.00,9842,9842
tai20a,7,H,703482,930478,930478,1.00,1,658
tai20a,7,3O,703482,902636,720736,1.32,34,21414
tai20a,7,VNS,703482,745000,720194,1.02,43,18275
tai20a,7,REV,703482,861576,763030,0.33,11,774
tai20a,8,G,703482,860152,758818,0.03,24,535
tai20a,8,S,703482,913044,758330,0.13,10,2090
tai20a,8,RS,703482,910126,815550,1.00,2681,2682
tai20a,8,RW,703482,917776,811744,1.00,9843,9843
tai20a,8,H,703482,930478,930478,1.00,1,653
tai20a,8,3O,703482,887992,775036,0.61,21,10060
tai20a,8,VNS,703482,741892,710350,1.00,32,17968
tai20a,8,REV,703482,885276,786284,0.35,11,791
tai20a,9,G,703482,889082,772330,0.04,21,550
tai20a,9,S,703482,890354,729798,0.14,11,2280
tai20a,9,RS,703482,888288,802872,1.00,2675,2676
tai20a,9,RW,703482,882750,806876,1.00,9828,9828
tai20a,9,H,703482,930478,930478,1.00,1,640
tai20a,9,3O,703482,887588,755870,0.45,21,7296
tai20a,9,VNS,703482,758290,724222,1.00,30,17144
tai20a,9,REV,703482,888172,789970,0.61,17,1453
sko81,0,G,90998,109684,92574,114.02,483,447895
sko81,0,S,90998,108812,93148,74.49,87,285120
sko81,0,RS,90998,106898,104260,114.02,23564,23565
sko81,0,RW,90998,107484,103648,114.02,393009,393009
sko81,0,H,90998,111016,109124,114.03,5,6991
sko81,0,3O,90998,108804,92480,8443.44,461,35410734
sko81,0,VNS,90998,92924,92924,116.69,477,463695
sko81,0,REV,90998,108422,98520,1496.50,204,262208
sko81,1,G,90998,107510,92900,110.23,440,424502
sko81,1,S,90998,107000,92662,80.62,95,311040
sko81,1,RS,90998,108514,104006,110.23,23006,23007
sko81,1,RW,90998,109892,104258,110.23,380310,380310
sko81,1,H,90998,113120,108728,110.24,8,6761
sko81,1,3O,90998,109300,91990,8203.82,482,34175568
sko81,1,VNS,90998,92142,92142,128.21,499,507194
sko81,1,REV,90998,109116,98750,1422.40,186,248180
sko81,2,G,90998,107718,93350,107.84,446,425597
sko81,2,S,90998,108804,92698,80.05,94,307800
sko81,2,RS,90998,108092,104816,107.84,22365,22366
sko81,2,RW,90998,106946,103970,107.84,361447,361447
sko81,2,H,90998,111936,109388,107.85,11,6272
sko81,2,3O,90998,105896,92122,6254.41,445,24987756
sko81,2,VNS,90998,92450,92450,128.00,462,505791
sko81,2,REV,90998,108216,99700,1532.50,178,256921
sko81,3,G,90998,108600,92420,156.53,480,483092
sko81,3,S,90998,109160,92946,103.71,111,362880
sko81,3,RS,90998,106942,104566,156.53,31791,31792
sko81,3,RW,90998,108782,103822,156.53,471752,471752
sko81,3,H,90998,113028,109148,156.55,7,9569
sko81,3,3O,90998,108552,91984,10394.70,481,43149082
sko81,3,VNS,90998,91878,91580,176.25,484,682031
sko81,3,REV,90998,109826,100440,1317.45,174,227444
sko81,4,G,90998,110592,92238,118.36,497,434157
sko81,4,S,90998,108466,92886,72.97,71,233280
sko81,4,RS,90998,108066,104426,118.36,24359,24360
sko81,4,RW,90998,108206,104058,118.36,397168,397168
sko81,4,H,90998,113452,109016,118.37,13,7181
sko81,4,3O,90998,107454,92432,8139.69,479,32630628
sko81,4,VNS,90998,92472,92400,123.06,453,484632
sko81,4,REV,90998,108100,98752,1966.97,248,342595
sko81,5,G,90998,108008,92088,158.90,477,471307
sko81,5,S,90998,110616,93274,64.31,73,239760
sko81,5,RS,90998,109858,104446,158.91,32643,32644
sko81,5,RW,90998,108840,104282,158.90,541429,541429
sko81,5,H,90998,112264,109120,158.91,12,8058
sko81,5,3O,90998,108020,92530,7360.71,467,30374078
sko81,5,VNS,90998,92306,92306,170.01,546,509594
sko81,5,REV,90998,108720,99526,666.84,148,112056
sko81,6,G,90998,106486,92116,115.86,417,457987
sko81,6,S,90998,109160,94568,64.25,74,243000
sko81,6,RS,90998,107792,104292,115.86,24045,24046
sko81,6,RW,90998,108550,104014,115.86,398133,398133
sko81,6,H,90998,113464,109236,115.87,15,7062
sko81,6,3O,90998,107596,92350,5935.84,443,24472204
sko81,6,VNS,90998,92366,92366,150.23,486,426230
sko81,6,REV,90998,107980,99188,1416.34,164,240447
sko81,7,G,90998,108154,92496,144.07,521,567374
sko81,7,S,90998,107410,92194,84.03,99,324000
sko81,7,RS,90998,109360,104334,144.07,29346,29347
sko81,7,RW,90998,108474,104198,144.07,467918,467918
sko81,7,H,90998,112600,109152,144.08,11,8844
sko81,7,3O,90998,108172,92020,7538.72,480,31204780
sko81,7,VNS,90998,92270,92246,175.30,458,636710
sko81,7,REV,90998,106978,99036,1403.58,193,237098
sko81,8,G,90998,107922,93606,104.11,427,409178
sko81,8,S,90998,106946,93190,85.62,101,330480
sko81,8,RS,90998,107696,104610,104.12,21439,21440
sko81,8,RW,90998,108460,104166,104.11,358272,358272
sko81,8,H,90998,113780,109140,104.13,9,6383
sko81,8,3O,90998,108846,92946,7618.84,437,31071254
sko81,8,VNS,90998,93072,93072,122.18,468,476034
sko81,8,REV,90998,108390,98264,2008.35,261,298421
sko81,9,G,90998,109644,93496,122.81,501,461577
sko81,9,S,90998,107904,92792,78.18,91,298080
sko81,9,RS,90998,109394,104662,122.81,25387,25388
sko81,9,RW,90998,110488,103922,122.81,421750,421750
sko81,9,H,90998,112320,108804,122.82,10,7158
sko81,9,3O,90998,107794,92360,7103.67,455,28686610
sko81,9,VNS,90998,92670,92552,140.04,495,549328
sko81,9,REV,90998,109076,99148,1713.21,204,299936
